[
  {
    "lat": "48.294029",
    "lng": "14.292398",
    "city": "Linz",
    "country": "Austria",
    "imid": 54206,
    "creator": "geozukunft"
  },
  {
    "lat": "51.217182",
    "lng": "4.421183",
    "city": "Antwerp",
    "country": "Belgium",
    "imid": 54234,
    "creator": "fvanstra"
  },
  {
    "lat": "50.839575",
    "lng": "4.397176",
    "city": "Brussels",
    "country": "Belgium",
    "imid": 54209,
    "creator": "Phaeleh14"
  },
  {
    "lat": "30.063306",
    "lng": "31.21987",
    "city": "Cairo",
    "country": "Egypt",
    "imid": 54217,
    "creator": "Trixity"
  },
  {
    "lat": "60.569318",
    "lng": "27.201076",
    "city": "Hamina",
    "country": "Finland",
    "imid": 54150,
    "creator": "Juho94"
  },
  {
    "lat": "60.51581",
    "lng": "26.935377",
    "city": "Kotka",
    "country": "Finland",
    "imid": 54078,
    "creator": "Juho94"
  },
  {
    "lat": "65.013335",
    "lng": "25.464731",
    "city": "Oulu",
    "country": "Finland",
    "imid": 54193,
    "creator": "ziudt"
  },
  {
    "lat": "63.096853",
    "lng": "21.616998",
    "city": "Vasa",
    "country": "Finland",
    "imid": 54147,
    "creator": "KarhulS"
  },
  {
    "lat": "48.650957",
    "lng": "-2.021719",
    "city": "Saint-Malo",
    "country": "France",
    "imid": 54215,
    "creator": "Dtargarye"
  },
  {
    "lat": "48.366465",
    "lng": "10.894503",
    "city": "Augsburg",
    "country": "Germany",
    "imid": 54158,
    "creator": "Pr0grammansage"
  },
  {
    "lat": "47.862161",
    "lng": "12.004311",
    "city": "Bad Aibling",
    "country": "Germany",
    "imid": 54134,
    "creator": "TianDerHungrige"
  },
  {
    "lat": "52.516489",
    "lng": "13.380383",
    "city": "Berlin",
    "country": "Germany",
    "imid": 54196,
    "creator": "Claudija"
  },
  {
    "lat": "53.075523",
    "lng": "8.80823",
    "city": "Bremen",
    "country": "Germany",
    "imid": 54227,
    "creator": "Vainar"
  },
  {
    "lat": "48.829077",
    "lng": "12.964637",
    "city": "Deggendorf",
    "country": "Germany",
    "imid": 54230,
    "creator": "EternalFlame94"
  },
  {
    "lat": "51.050004",
    "lng": "13.737016",
    "city": "Dresden",
    "country": "Germany",
    "imid": 54011,
    "creator": "damdina"
  },
  {
    "lat": "51.52923",
    "lng": "11.548133",
    "city": "Eisleben",
    "country": "Germany",
    "imid": 54243,
    "creator": "slight7"
  },
  {
    "lat": "49.476206",
    "lng": "10.975983",
    "city": "Fürth",
    "country": "Germany",
    "imid": 54116,
    "creator": "growanian"
  },
  {
    "lat": "53.788187",
    "lng": "9.427871",
    "city": "Glückstadt",
    "country": "Germany",
    "imid": 54221,
    "creator": "DonSyco"
  },
  {
    "lat": "48.111135",
    "lng": "11.731159",
    "city": "Haar",
    "country": "Germany",
    "imid": 54216,
    "creator": "wazoo"
  },
  {
    "lat": "51.483671",
    "lng": "11.97519",
    "city": "Halle (Saale)",
    "country": "Germany",
    "imid": 54107,
    "creator": "janc70"
  },
  {
    "lat": "53.551495",
    "lng": "9.992347",
    "city": "Hamburg",
    "country": "Germany",
    "imid": 54192,
    "creator": "damdina"
  },
  {
    "lat": "50.924988",
    "lng": "11.587354",
    "city": "Jena",
    "country": "Germany",
    "imid": 54149,
    "creator": "BitKloepplerin"
  },
  {
    "lat": "49.001729",
    "lng": "8.462592",
    "city": "Karlsruhe",
    "country": "Germany",
    "imid": 54204,
    "creator": "AxForest"
  },
  {
    "lat": "48.049161",
    "lng": "10.878928",
    "city": "Landsberg am Lech",
    "country": "Germany",
    "imid": 54219,
    "creator": "BastyG"
  },
  {
    "lat": "51.343125",
    "lng": "12.380236",
    "city": "Leipzig",
    "country": "Germany",
    "imid": 54191,
    "creator": "damdina"
  },
  {
    "lat": "49.485371",
    "lng": "8.463827",
    "city": "Mannheim",
    "country": "Germany",
    "imid": 54113,
    "creator": "chousan07"
  },
  {
    "lat": "48.779102",
    "lng": "12.866475",
    "city": "Plattling",
    "country": "Germany",
    "imid": 54197,
    "creator": "EternalFlame94"
  },
  {
    "lat": "47.85047",
    "lng": "12.119574",
    "city": "Rosenheim",
    "country": "Germany",
    "imid": 54086,
    "creator": "TianDerHungrige"
  },
  {
    "lat": "50.995291",
    "lng": "9.729127",
    "city": "Rotenburg an der Fulda",
    "country": "Germany",
    "imid": 54251,
    "creator": "MaveX5"
  },
  {
    "lat": "37.974911",
    "lng": "23.735771",
    "city": "Athens",
    "country": "Greece",
    "imid": 54118,
    "creator": "DMiliarakis"
  },
  {
    "lat": "35.337529",
    "lng": "25.130693",
    "city": "Heraklion",
    "country": "Greece",
    "imid": 54161,
    "creator": "Statbir"
  },
  {
    "lat": "39.640184",
    "lng": "22.419096",
    "city": "Larisa",
    "country": "Greece",
    "imid": 54236,
    "creator": "Yoricas"
  },
  {
    "lat": "38.251899",
    "lng": "21.739634",
    "city": "Patras",
    "country": "Greece",
    "imid": 54136,
    "creator": "AeonLeon"
  },
  {
    "lat": "40.626337",
    "lng": "22.948425",
    "city": "Thessaloniki",
    "country": "Greece",
    "imid": 54153,
    "creator": "DMiliarakis"
  },
  {
    "lat": "47.498832",
    "lng": "19.036286",
    "city": "Budapest",
    "country": "Hungary",
    "imid": 54244,
    "creator": "Cselka"
  },
  {
    "lat": "64.107602",
    "lng": "-21.904514",
    "city": "Kopavogur",
    "country": "Iceland",
    "imid": 54194,
    "creator": "KarhuIS"
  },
  {
    "lat": "51.690497",
    "lng": "5.29434",
    "city": "s-Hertogenbosch",
    "country": "Netherlands",
    "imid": 54203,
    "creator": "DhrMekmek"
  },
  {
    "lat": "52.994954",
    "lng": "6.563793",
    "city": "Assen",
    "country": "Netherlands",
    "imid": 54081,
    "creator": "Ducilia"
  },
  {
    "lat": "52.257064",
    "lng": "6.160588",
    "city": "Deventer",
    "country": "Netherlands",
    "imid": 54246,
    "creator": "DhrMekmek"
  },
  {
    "lat": "51.561116",
    "lng": "3.499326",
    "city": "Domburg",
    "country": "Netherlands",
    "imid": 54169,
    "creator": "Captainmichiel"
  },
  {
    "lat": "52.226575",
    "lng": "5.181367",
    "city": "Hilversum",
    "country": "Netherlands",
    "imid": 54208,
    "creator": "JeffNL"
  },
  {
    "lat": "53.159172",
    "lng": "6.754585",
    "city": "Hoogezand",
    "country": "Netherlands",
    "imid": 54205,
    "creator": "Henno86"
  },
  {
    "lat": "51.500105",
    "lng": "3.61614",
    "city": "Middelburg",
    "country": "Netherlands",
    "imid": 54178,
    "creator": "SagaSanTSD"
  },
  {
    "lat": "52.091724",
    "lng": "5.116839",
    "city": "Utrecht",
    "country": "Netherlands",
    "imid": 54122,
    "creator": "DhrMekmek"
  },
  {
    "lat": "50.258465",
    "lng": "19.018318",
    "city": "Katovice",
    "country": "Poland",
    "imid": 54257,
    "creator": "pandahe1en"
  },
  {
    "lat": "48.146414",
    "lng": "17.106836",
    "city": "Bratislava",
    "country": "Slovakia",
    "imid": 54200,
    "creator": "EternalFlame94"
  },
  {
    "lat": "41.344046",
    "lng": "2.038229",
    "city": "Sant Boi de Llobregat",
    "country": "Spain",
    "imid": 54255,
    "creator": "sonicyo76"
  },
  {
    "lat": "57.707024",
    "lng": "11.967525",
    "city": "Göteborg",
    "country": "Sweden",
    "imid": 54112,
    "creator": "Sajjen"
  },
  {
    "lat": "55.707156",
    "lng": "13.1873",
    "city": "Lund",
    "country": "Sweden",
    "imid": 54080,
    "creator": "ckk76"
  },
  {
    "lat": "57.655781",
    "lng": "12.016563",
    "city": "Mölndal",
    "country": "Sweden",
    "imid": 54111,
    "creator": "Sajjen"
  },
  {
    "lat": "47.555917",
    "lng": "7.591526",
    "city": "Basel",
    "country": "Switzerland",
    "imid": 54198,
    "creator": "Claudija"
  },
  {
    "lat": "46.462713",
    "lng": "6.842373",
    "city": "Vevey",
    "country": "Switzerland",
    "imid": 54231,
    "creator": "Shogun79"
  },
  {
    "lat": "47.37713",
    "lng": "8.539107",
    "city": "Zürich",
    "country": "Switzerland",
    "imid": 54232,
    "creator": "Shogun79"
  },
  {
    "lat": "52.916441",
    "lng": "-1.463059",
    "city": "Derby",
    "country": "United Kingdom",
    "imid": 54124,
    "creator": "Caraphaelius"
  },
  {
    "lat": "53.795908",
    "lng": "-1.547121",
    "city": "Leeds",
    "country": "United Kingdom",
    "imid": 54207,
    "creator": "RoseyMacdoo"
  },
  {
    "lat": "50.448772",
    "lng": "30.512848",
    "city": "Kyiv",
    "country": "Ukraine",
    "imid": 54253,
    "creator": "IskanderLocator"
  },
  {
    "lat": "49.183854",
    "lng": "-122.848645",
    "city": "Surrey",
    "country": "Canada",
    "imid": 54229,
    "creator": "nifffer"
  },
  {
    "lat": "0.870556",
    "lng": "-79.847929",
    "city": "Atacames",
    "country": "Ecuador",
    "imid": 54077,
    "creator": "nikp3h"
  },
  {
    "lat": "-0.273806",
    "lng": "-79.44936",
    "city": "El Carmen",
    "country": "Ecuador",
    "imid": 54164,
    "creator": "nikp3h"
  },
  {
    "lat": "0.956909",
    "lng": "-79.65131",
    "city": "Esmeraldas",
    "country": "Ecuador",
    "imid": 54117,
    "creator": "nikp3h"
  },
  {
    "lat": "-0.957761",
    "lng": "-80.714912",
    "city": "Manta",
    "country": "Ecuador",
    "imid": 54166,
    "creator": "AleksEspi"
  },
  {
    "lat": "46.819092",
    "lng": "-100.778694",
    "city": "Bismarck (North Dakota)",
    "country": "USA",
    "imid": 54222,
    "creator": "localgeek"
  },
  {
    "lat": "26.881696",
    "lng": "-80.106984",
    "city": "Palm Beach Gardens",
    "country": "USA",
    "imid": 54133,
    "creator": "porkobyte"
  },
  {
    "lat": "37.791271",
    "lng": "-122.38933",
    "city": "San Francisco",
    "country": "USA",
    "imid": 54152,
    "creator": "Claudija"
  },
  {
    "lat": "29.883279",
    "lng": "-97.940494",
    "city": "San Marcos (Texas)",
    "country": "USA",
    "imid": 54275,
    "creator": "krockwastaken"
  },
  {
    "lat": "-27.46551",
    "lng": "153.019108",
    "city": "Brisbane",
    "country": "Australia",
    "imid": 54249,
    "creator": "Lluminaire"
  },
  {
    "lat": "34.693121",
    "lng": "135.501174",
    "city": "Osaka",
    "country": "Japan",
    "imid": 54267,
    "creator": "tarmn3"
  },
  {
    "lat": "43.058986",
    "lng": "141.340645",
    "city": "Sapporo",
    "country": "Japan",
    "imid": 54258,
    "creator": "yukiatom"
  },
  {
    "lat": "35.894062",
    "lng": "139.633969",
    "city": "Saitama",
    "country": "Japan",
    "imid": 54266,
    "creator": "chousan07"
  },
  {
    "lat": "46.12622",
    "lng": "3.415488",
    "city": "Vichy",
    "country": "France",
    "imid": 54285,
    "creator": "Leynou"
  },
  {
    "lat": "0.00764",
    "lng": "-79.398505",
    "city": "La Concordia",
    "country": "Ecuador",
    "imid": 54288,
    "creator": "nikp3h"
  },
  {
    "lat": "42.938766",
    "lng": "-78.888056",
    "city": "Buffalo (New York)",
    "country": "USA",
    "imid": 54290,
    "creator": "DisasterMaker89"
  },
  {
    "lat": "41.853578",
    "lng": "-87.652462",
    "city": "Chicago (Illinois)",
    "country": "USA",
    "imid": 54291,
    "creator": "DisasterMaker89"
  },
  {
    "lat": "45.254921",
    "lng": "19.843664",
    "city": "Novi Sad",
    "country": "Serbia",
    "imid": 54293,
    "creator": "brunopuric"
  },
  {
    "lat": "-23.4256",
    "lng": "-51.936734",
    "city": "Maringá",
    "country": "Brazil",
    "imid": 54283,
    "creator": "GiJoeRise"
  },
  {
    "lat": "47.522631",
    "lng": "8.537618",
    "city": "Bülach",
    "country": "Switzerland",
    "imid": 54294,
    "creator": "Shogun79"
  },
  {
    "lat": "30.703443",
    "lng": "76.781464",
    "city": "Chandigarh",
    "country": "India",
    "imid": 54295,
    "creator": "CommandoRana"
  },
  {
    "lat": "28.470661",
    "lng": "77.063088",
    "city": "Gurugram",
    "country": "India",
    "imid": 54296,
    "creator": "bhands"
  },
  {
    "lat": "-0.23927",
    "lng": "-79.17017",
    "city": "Santo Domingo",
    "country": "Ecuador",
    "imid": 54298,
    "creator": "VMRios"
  },
  {
    "lat": "33.459509",
    "lng": "-112.072391",
    "city": "Phoenix (Arizona)",
    "country": "USA",
    "imid": 54301,
    "creator": "MonkeyPelt"
  },
  {
    "lat": "50.63754",
    "lng": "3.07162",
    "city": "Lille",
    "country": "France",
    "imid": 54297,
    "creator": "MarcoSunbass"
  },
  {
    "lat": "50.06767",
    "lng": "14.415601",
    "city": "Prague",
    "country": "Czech Republic",
    "imid": 54310,
    "creator": "toothrot"
  },
  {
    "lat": "52.507028",
    "lng": "5.470724",
    "city": "Lelystad",
    "country": "Netherlands",
    "imid": 54309,
    "creator": "ioHpeiH"
  },
  {
    "lat": "43.259068",
    "lng": "-2.922657",
    "city": "Bilbao",
    "country": "Spain",
    "imid": 54312,
    "creator": "ntzz"
  },
  {
    "lat": "49.868536",
    "lng": "8.650301",
    "city": "Darmstadt",
    "country": "Germany",
    "imid": 54314,
    "creator": "YaYaMuuu"
  },
  {
    "lat": "42.340967",
    "lng": "-3.716752",
    "city": "Burgos",
    "country": "Spain",
    "imid": 54313,
    "creator": "ntzz"
  },
  {
    "lat": "53.431731",
    "lng": "14.566931",
    "city": "Szczecin",
    "country": "Poland",
    "imid": 54315,
    "creator": "GreenBay"
  },
  {
    "lat": "55.594231",
    "lng": "13.000364",
    "city": "Malmö",
    "country": "Sweden",
    "imid": 54316,
    "creator": "ckk76"
  },
  {
    "lat": "41.388745",
    "lng": "2.172648",
    "city": "Barcelona",
    "country": "Spain",
    "imid": 54318,
    "creator": "abstractpainter"
  },
  {
    "lat": "54.522956",
    "lng": "18.543882",
    "city": "Gdynia",
    "country": "Poland",
    "imid": 54317,
    "creator": "Therin87"
  },
  {
    "lat": "60.170694",
    "lng": "24.941522",
    "city": "Helsinki",
    "country": "Finland",
    "imid": 54321,
    "creator": "Gentianella"
  },
  {
    "lat": "60.870776",
    "lng": "26.714445",
    "city": "Kouvola",
    "country": "Finland",
    "imid": 54324,
    "creator": "Juho94"
  },
  {
    "lat": "41.560972",
    "lng": "2.007625",
    "city": "Terrassa",
    "country": "Spain",
    "imid": 54325,
    "creator": "abstractpainter"
  },
  {
    "lat": "52.199851",
    "lng": "0.127864",
    "city": "Cambridge",
    "country": "United Kingdom",
    "imid": 54326,
    "creator": "thundercracker1"
  },
  {
    "lat": "35.54397",
    "lng": "134.2374",
    "city": "Tottori",
    "country": "Japan",
    "imid": 54328,
    "creator": "katops"
  },
  {
    "lat": "48.115212",
    "lng": "-1.677485",
    "city": "Rennes",
    "country": "France",
    "imid": 54335,
    "creator": "Dtargarye"
  },
  {
    "lat": "-12.078701",
    "lng": "-77.049949",
    "city": "Lima",
    "country": "Peru",
    "imid": 54344,
    "creator": "Amularia"
  },
  {
    "lat": "54.074436",
    "lng": "9.98174",
    "city": "Neumünster",
    "country": "Germany",
    "imid": 54343,
    "creator": "BaronVonLoewi"
  },
  {
    "lat": "61.20254",
    "lng": "26.034381",
    "city": "Heinola",
    "country": "Finland",
    "imid": 54338,
    "creator": "Eeligamer"
  },
  {
    "lat": "55.860454",
    "lng": "-4.249022",
    "city": "Glasgow",
    "country": "United Kingdom",
    "imid": 54349,
    "creator": "1969reeperman"
  },
  {
    "lat": "48.881118",
    "lng": "12.565601",
    "city": "Straubing",
    "country": "Germany",
    "imid": 54350,
    "creator": "EternalFlame94"
  },
  {
    "lat": "48.950333",
    "lng": "13.199321",
    "city": "Rinchnach",
    "country": "Germany",
    "imid": 54351,
    "creator": "EternalFlame94"
  },
  {
    "lat": "48.571397",
    "lng": "13.456288",
    "city": "Passau",
    "country": "Germany",
    "imid": 54352,
    "creator": "EternalFlame94"
  },
  {
    "lat": "49.417323",
    "lng": "8.675789",
    "city": "Heidelberg",
    "country": "Germany",
    "imid": 54363,
    "creator": "Nasgorian"
  },
  {
    "lat": "48.765214",
    "lng": "13.019515",
    "city": "Niederalteich",
    "country": "Germany",
    "imid": 54368,
    "creator": "19mel89"
  },
  {
    "lat": "45.475579",
    "lng": "9.172583",
    "city": "Milan",
    "country": "Italy",
    "imid": 54364,
    "creator": "rayofshadow23"
  },
  {
    "lat": "48.857335",
    "lng": "2.351661",
    "city": "Paris",
    "country": "France",
    "imid": 54367,
    "creator": "Khatre"
  },
  {
    "lat": "48.823868",
    "lng": "2.353475",
    "city": "Paris district 13",
    "country": "France",
    "imid": 54369,
    "creator": "NorajBarthabass"
  },
  {
    "lat": "49.020575",
    "lng": "12.101511",
    "city": "Regensburg",
    "country": "Germany",
    "imid": 54373,
    "creator": "Pr0grammansage"
  },
  {
    "lat": "35.212644",
    "lng": "26.11189",
    "city": "Sitia",
    "country": "Greece",
    "imid": 54371,
    "creator": "ippalectrion"
  },
  {
    "lat": "50.077624",
    "lng": "12.371507",
    "city": "Cheb",
    "country": "Czech Republic",
    "imid": 54374,
    "creator": "toothrot"
  },
  {
    "lat": "51.441596",
    "lng": "3.595677",
    "city": "Vlissingen",
    "country": "Netherlands",
    "imid": 54376,
    "creator": "captainmichiel"
  },
  {
    "lat": "49.194805",
    "lng": "16.608594",
    "city": "Brno",
    "country": "Czech Republic",
    "imid": 54377,
    "creator": "OndermanCZ"
  },
  {
    "lat": "35.674647",
    "lng": "139.763467",
    "city": "Tokyo",
    "country": "Japan",
    "imid": 54381,
    "creator": "clomi9999"
  },
  {
    "lat": "42.885571",
    "lng": "24.709854",
    "city": "Troyan",
    "country": "Bulgaria",
    "imid": 54379,
    "creator": "YaYaMuuu"
  },
  {
    "lat": "51.53154",
    "lng": "-0.123894",
    "city": "London",
    "country": "United Kingdom",
    "imid": 54388,
    "creator": "clojurian"
  },
  {
    "lat": "48.137238",
    "lng": "11.576208",
    "city": "Munich",
    "country": "Germany",
    "imid": 54391,
    "creator": "Trixity"
  },
  {
    "lat": "14.561575",
    "lng": "121.076619",
    "city": "Pasig",
    "country": "Philippines",
    "imid": 54393,
    "creator": "Ngern"
  },
  {
    "lat": "47.823335",
    "lng": "-0.707792",
    "city": "Château-Gontier",
    "country": "France",
    "imid": 54395,
    "creator": "JiefSourd"
  },
  {
    "lat": "50.149469",
    "lng": "15.122533",
    "city": "Poděbrady",
    "country": "Czech Republic",
    "imid": 54396,
    "creator": "ECILEHARD"
  },
  {
    "lat": "59.323865",
    "lng": "18.067484",
    "city": "Stockholm - Gamla Stan",
    "country": "Sweden",
    "imid": 54403,
    "creator": "stnigatan"
  },
  {
    "lat": "51.27768",
    "lng": "0.521288",
    "city": "Maidstone",
    "country": "United Kingdom",
    "imid": 54401,
    "creator": "Zeebass"
  },
  {
    "lat": "51.38595",
    "lng": "0.507329",
    "city": "Rochester",
    "country": "United Kingdom",
    "imid": 54402,
    "creator": "Zeebass"
  },
  {
    "lat": "51.385493",
    "lng": "1.371876",
    "city": "Margate",
    "country": "United Kingdom",
    "imid": 54404,
    "creator": "EpicGinger"
  },
  {
    "lat": "50.558707",
    "lng": "15.911922",
    "city": "Trutnov",
    "country": "Czech Republic",
    "imid": 54405,
    "creator": "Fisa22"
  },
  {
    "lat": "44.425414",
    "lng": "26.046457",
    "city": "Bucharest",
    "country": "Romania",
    "imid": 54408,
    "creator": "ciiniirosii"
  },
  {
    "lat": "38.677374",
    "lng": "-121.774645",
    "city": "Woodland (California)",
    "country": "USA",
    "imid": 54411,
    "creator": "PLCats"
  },
  {
    "lat": "35.396392",
    "lng": "139.466787",
    "city": "Shonandai",
    "country": "Japan",
    "imid": 54410,
    "creator": "SuZ912"
  },
  {
    "lat": "38.260935",
    "lng": "140.881432",
    "city": "Sendai",
    "country": "Japan",
    "imid": 54409,
    "creator": "BYTEE"
  },
  {
    "lat": "35.680554",
    "lng": "139.471964",
    "city": "Fuchu",
    "country": "Japan",
    "imid": 54414,
    "creator": "DHINDHIN"
  },
  {
    "lat": "51.49861",
    "lng": "3.890336",
    "city": "Goes",
    "country": "Netherlands",
    "imid": 54415,
    "creator": "Captainmichiel"
  },
  {
    "lat": "37.628575",
    "lng": "138.97374",
    "city": "Niigata Sanjo-city",
    "country": "Japan",
    "imid": 54417,
    "creator": "iori7redr"
  },
  {
    "lat": "45.754017",
    "lng": "21.225819",
    "city": "Timisoara",
    "country": "Romania",
    "imid": 54418,
    "creator": "betadina"
  },
  {
    "lat": "52.210134",
    "lng": "5.969025",
    "city": "Apeldoorn",
    "country": "Netherlands",
    "imid": 54429,
    "creator": "Cyberjarvis"
  },
  {
    "lat": "51.276413",
    "lng": "1.082237",
    "city": "Canterbury",
    "country": "United Kingdom",
    "imid": 54427,
    "creator": "EpicGinger"
  },
  {
    "lat": "49.77996",
    "lng": "18.429994",
    "city": "Havířov",
    "country": "Czech Republic",
    "imid": 54422,
    "creator": "HerUrCZ"
  },
  {
    "lat": "35.318876",
    "lng": "139.550814",
    "city": "Kamakura",
    "country": "Japan",
    "imid": 54423,
    "creator": "SuZ912"
  },
  {
    "lat": "35.451431",
    "lng": "139.63079",
    "city": "Yokohama Bayside",
    "country": "Japan",
    "imid": 54424,
    "creator": "absolute119966"
  },
  {
    "lat": "-2.200943",
    "lng": "-79.882101",
    "city": "Guayaquil",
    "country": "Ecuador",
    "imid": 54431,
    "creator": "RazorEc"
  },
  {
    "lat": "44.449486",
    "lng": "26.088097",
    "city": "Bucharest II",
    "country": "Romania",
    "imid": 54439,
    "creator": "Xenador"
  },
  {
    "lat": "49.999062",
    "lng": "8.272641",
    "city": "Mainz",
    "country": "Germany",
    "imid": 54437,
    "creator": "SayoSenpai"
  },
  {
    "lat": "5.388313",
    "lng": "100.308743",
    "city": "Penang",
    "country": "Malaysia",
    "imid": 54445,
    "creator": "Saltedeggfries"
  },
  {
    "lat": "49.448408",
    "lng": "1.099924",
    "city": "Rouen",
    "country": "France",
    "imid": 54443,
    "creator": "Nenette76"
  },
  {
    "lat": "50.384917",
    "lng": "8.063389",
    "city": "Limburg an der Lahn",
    "country": "Germany",
    "imid": 54441,
    "creator": "jopewe7777"
  },
  {
    "lat": "49.293434",
    "lng": "8.699172",
    "city": "Wiesloch",
    "country": "Germany",
    "imid": 54460,
    "creator": "janc70"
  },
  {
    "lat": "49.749156",
    "lng": "13.375987",
    "city": "Pilsen",
    "country": "Czech Republic",
    "imid": 54459,
    "creator": "H0merJay"
  },
  {
    "lat": "33.320296",
    "lng": "130.501583",
    "city": "Fukuoka Kurume",
    "country": "Japan",
    "imid": 54454,
    "creator": "tomatowk"
  },
  {
    "lat": "35.018436",
    "lng": "135.681179",
    "city": "Kyoto",
    "country": "Japan",
    "imid": 54465,
    "creator": "arau3"
  },
  {
    "lat": "36.559387",
    "lng": "139.897888",
    "city": "Utsunomiya",
    "country": "Japan",
    "imid": 54461,
    "creator": "spread999"
  },
  {
    "lat": "51.815148",
    "lng": "4.667223",
    "city": "Dordrecht",
    "country": "Netherlands",
    "imid": 54463,
    "creator": "Naoma81"
  },
  {
    "lat": "33.945343",
    "lng": "131.284235",
    "city": "Ube",
    "country": "Japan",
    "imid": 54466,
    "creator": "mSchnauzer"
  },
  {
    "lat": "-22.086157",
    "lng": "-70.195752",
    "city": "Tocopilla",
    "country": "Chile",
    "imid": 54484,
    "creator": "Sherlok76"
  },
  {
    "lat": "59.319646",
    "lng": "18.06782",
    "city": "Stockholm - Södermalm",
    "country": "Sweden",
    "imid": 54470,
    "creator": "stnigatan"
  },
  {
    "lat": "49.542971",
    "lng": "8.670901",
    "city": "Weinheim",
    "country": "Germany",
    "imid": 54485,
    "creator": "Nasgorian"
  },
  {
    "lat": "48.782229",
    "lng": "9.18191",
    "city": "Stuttgart",
    "country": "Germany",
    "imid": 54486,
    "creator": "KirillDE"
  },
  {
    "lat": "49.019456",
    "lng": "12.097637",
    "city": "Regensburg - Dom",
    "country": "Germany",
    "imid": 54493,
    "creator": "EternalFlame94"
  },
  {
    "lat": "48.972661",
    "lng": "13.136767",
    "city": "Regen",
    "country": "Germany",
    "imid": 54494,
    "creator": "EternalFlame94"
  },
  {
    "lat": "49.017008",
    "lng": "13.229918",
    "city": "Zwiesel",
    "country": "Germany",
    "imid": 54491,
    "creator": "EternalFlame94"
  },
  {
    "lat": "56.158268",
    "lng": "10.205758",
    "city": "Aarhus",
    "country": "Denmark",
    "imid": 54511,
    "creator": "ingresnyx"
  },
  {
    "lat": "-38.740243",
    "lng": "-72.585154",
    "city": "Temuco",
    "country": "Chile",
    "imid": 54492,
    "creator": "jemm1982"
  },
  {
    "lat": "33.589333",
    "lng": "130.419165",
    "city": "Fukuoka",
    "country": "Japan",
    "imid": 54504,
    "creator": "masa307"
  },
  {
    "lat": "38.260278",
    "lng": "140.856303",
    "city": "Kawauchi Hagi Hall",
    "country": "Japan",
    "imid": 54510,
    "creator": "jaicat"
  },
  {
    "lat": "51.512365",
    "lng": "10.258199",
    "city": "Duderstadt",
    "country": "Germany",
    "imid": 54515,
    "creator": "Dativ"
  },
  {
    "lat": "39.703586",
    "lng": "141.142964",
    "city": "Morioka",
    "country": "Japan",
    "imid": 54513,
    "creator": "HiroAPP"
  },
  {
    "lat": "35.801701",
    "lng": "140.116404",
    "city": "Chiba New Town",
    "country": "Japan",
    "imid": 54517,
    "creator": "k32ru"
  },
  {
    "lat": "34.397725",
    "lng": "132.476028",
    "city": "Hiroshima",
    "country": "Japan",
    "imid": 54521,
    "creator": "k32ru"
  },
  {
    "lat": "35.086928",
    "lng": "137.156273",
    "city": "Toyota",
    "country": "Japan",
    "imid": 54523,
    "creator": "zyandararin"
  },
  {
    "lat": "-33.042294",
    "lng": "-71.375112",
    "city": "Villa Alemana",
    "country": "Chile",
    "imid": 54526,
    "creator": "chaniitapaz"
  },
  {
    "lat": "-33.05022",
    "lng": "-71.442058",
    "city": "Quilpué",
    "country": "Chile",
    "imid": 54527,
    "creator": "Rebirxtsx"
  },
  {
    "lat": "-33.023513",
    "lng": "-71.552179",
    "city": "Viña Del Mar",
    "country": "Chile",
    "imid": 54528,
    "creator": "ChicoDelPortico"
  },
  {
    "lat": "-32.828483",
    "lng": "-71.22807",
    "city": "La Cruz",
    "country": "Chile",
    "imid": 54529,
    "creator": "gutihollows"
  },
  {
    "lat": "52.080158",
    "lng": "4.322776",
    "city": "Den Haag",
    "country": "Netherlands",
    "imid": 54536,
    "creator": "XIOSUUSKE"
  },
  {
    "lat": "-40.578441",
    "lng": "-73.16481",
    "city": "Osorno",
    "country": "Chile",
    "imid": 54537,
    "creator": "SuperMiau"
  },
  {
    "lat": "-41.471921",
    "lng": "-72.937998",
    "city": "Puerto Montt",
    "country": "Chile",
    "imid": 54538,
    "creator": "SuperMiau"
  },
  {
    "lat": "34.033263",
    "lng": "131.193514",
    "city": "Sanyo-Onoda",
    "country": "Japan",
    "imid": 54540,
    "creator": "mSchnauzer"
  },
  {
    "lat": "34.66525",
    "lng": "135.500611",
    "city": "Osaka - Namba Parks",
    "country": "Japan",
    "imid": 54541,
    "creator": "unyyyuuuuuu"
  },
  {
    "lat": "35.906943",
    "lng": "139.482499",
    "city": "Kawagoe",
    "country": "Japan",
    "imid": 54544,
    "creator": "island1222"
  },
  {
    "lat": "36.083086",
    "lng": "140.111718",
    "city": "Tsukuba",
    "country": "Japan",
    "imid": 54543,
    "creator": "ysaki"
  },
  {
    "lat": "34.872195",
    "lng": "138.317968",
    "city": "Yaizu",
    "country": "Japan",
    "imid": 54542,
    "creator": "TackerBomb"
  },
  {
    "lat": "35.698711",
    "lng": "139.771659",
    "city": "Akihabara",
    "country": "Japan",
    "imid": 54548,
    "creator": "unyyyuuuuuu"
  },
  {
    "lat": "35.12588",
    "lng": "138.911753",
    "city": "Mishima",
    "country": "Japan",
    "imid": 54550,
    "creator": "ysaki"
  },
  {
    "lat": "35.28018",
    "lng": "139.661955",
    "city": "Yokosuka",
    "country": "Japan",
    "imid": 54551,
    "creator": "ysaki"
  },
  {
    "lat": "44.844504",
    "lng": "-0.571116",
    "city": "Bordeaux",
    "country": "France",
    "imid": 54549,
    "creator": "JiefSourd"
  },
  {
    "lat": "35.37843",
    "lng": "136.26465",
    "city": "Nagahama",
    "country": "Japan",
    "imid": 54552,
    "creator": "ysaki"
  },
  {
    "lat": "59.33497",
    "lng": "18.073489",
    "city": "Stockholm City",
    "country": "Sweden",
    "imid": 54556,
    "creator": "stnigatan"
  },
  {
    "lat": "-40.339526",
    "lng": "-72.941693",
    "city": "Rio Bueno",
    "country": "Chile",
    "imid": 54553,
    "creator": "SuperMiau"
  },
  {
    "lat": "35.037327",
    "lng": "135.979982",
    "city": "Ritto",
    "country": "Japan",
    "imid": 54558,
    "creator": "kentaroly"
  },
  {
    "lat": "59.331221",
    "lng": "18.045892",
    "city": "Stockholm Kungsholmen",
    "country": "Sweden",
    "imid": 54557,
    "creator": "stnigatan"
  },
  {
    "lat": "-37.090406",
    "lng": "-73.154169",
    "city": "Lota",
    "country": "Chile",
    "imid": 54560,
    "creator": "YukiOnna49"
  },
  {
    "lat": "-28.57479",
    "lng": "-70.761208",
    "city": "Vallenar",
    "country": "Chile",
    "imid": 54564,
    "creator": "luchowolf"
  },
  {
    "lat": "-1.077351",
    "lng": "-80.459656",
    "city": "Portoviejo Rock City",
    "country": "Ecuador",
    "imid": 54567,
    "creator": "GantsMarley"
  },
  {
    "lat": "-34.438327",
    "lng": "-71.079236",
    "city": "San Vicente",
    "country": "Chile",
    "imid": 54571,
    "creator": "elkawai"
  },
  {
    "lat": "-34.652763",
    "lng": "-71.900962",
    "city": "Paredones",
    "country": "Chile",
    "imid": 54572,
    "creator": "elkawai"
  },
  {
    "lat": "46.204947",
    "lng": "6.150993",
    "city": "Genève",
    "country": "Switzerland",
    "imid": 54575,
    "creator": "Shogun79"
  },
  {
    "lat": "43.352806",
    "lng": "-8.402746",
    "city": "A Coruña",
    "country": "Spain",
    "imid": 54576,
    "creator": "VicthorSUU"
  },
  {
    "lat": "46.471987",
    "lng": "30.747864",
    "city": "Odessa",
    "country": "Ukraine",
    "imid": 54582,
    "creator": "Nygmat"
  },
  {
    "lat": "43.608554",
    "lng": "3.879429",
    "city": "Montpellier",
    "country": "France",
    "imid": 54589,
    "creator": "Shyzus"
  },
  {
    "lat": "35.156045",
    "lng": "136.917403",
    "city": "Nagoya - Tsuruma Park",
    "country": "Japan",
    "imid": 54592,
    "creator": "ikepon78"
  },
  {
    "lat": "35.53531",
    "lng": "139.589112",
    "city": "Yokohama - Nakamachidai",
    "country": "Japan",
    "imid": 54595,
    "creator": "SuperDurandal"
  },
  {
    "lat": "-33.524712",
    "lng": "-70.796786",
    "city": "Maipu",
    "country": "Chile",
    "imid": 54599,
    "creator": "drent01"
  },
  {
    "lat": "45.159543",
    "lng": "1.532087",
    "city": "Brive-la-Gaillarde",
    "country": "France",
    "imid": 54601,
    "creator": "Leynou"
  },
  {
    "lat": "-35.426834",
    "lng": "-71.666367",
    "city": "Talca",
    "country": "Chile",
    "imid": 54609,
    "creator": "Lincexy"
  },
  {
    "lat": "-20.234413",
    "lng": "-70.147794",
    "city": "Iquique",
    "country": "Chile",
    "imid": 54617,
    "creator": "Sherlok76"
  },
  {
    "lat": "-18.478383",
    "lng": "-70.323674",
    "city": "Arica",
    "country": "Chile",
    "imid": 54619,
    "creator": "ElektraKunoichi"
  },
  {
    "lat": "-36.82531",
    "lng": "-73.047501",
    "city": "Concepción",
    "country": "Chile",
    "imid": 54622,
    "creator": "YukiOnna49"
  },
  {
    "lat": "45.830375",
    "lng": "1.254477",
    "city": "Limoges",
    "country": "France",
    "imid": 54642,
    "creator": "Leynou"
  },
  {
    "lat": "51.283715",
    "lng": "6.199768",
    "city": "Bracht",
    "country": "Germany",
    "imid": 54641,
    "creator": "hek800"
  },
  {
    "lat": "26.227071",
    "lng": "127.728898",
    "city": "Naha Shuri",
    "country": "Japan",
    "imid": 54630,
    "creator": "cho03"
  },
  {
    "lat": "-29.905591",
    "lng": "-71.25029",
    "city": "La Serena",
    "country": "Chile",
    "imid": 54627,
    "creator": "Vins0"
  },
  {
    "lat": "-34.164736",
    "lng": "-70.744974",
    "city": "Rancagua",
    "country": "Chile",
    "imid": 54670,
    "creator": "mcavila1279"
  },
  {
    "lat": "34.684074",
    "lng": "135.828571",
    "city": "Nara",
    "country": "Japan",
    "imid": 54681,
    "creator": "tockey"
  },
  {
    "lat": "-32.984475",
    "lng": "-71.277845",
    "city": "Limache",
    "country": "Chile",
    "imid": 54679,
    "creator": "gutihollows"
  },
  {
    "lat": "-32.788265",
    "lng": "-71.198731",
    "city": "La Calera",
    "country": "Chile",
    "imid": 54678,
    "creator": "gutihollows"
  },
  {
    "lat": "-34.985738",
    "lng": "-71.238592",
    "city": "Curicó",
    "country": "Chile",
    "imid": 54688,
    "creator": "Chocodani"
  },
  {
    "lat": "-35.450286",
    "lng": "-71.58416",
    "city": "La Obra",
    "country": "Chile",
    "imid": 54687,
    "creator": "DomiNoLomi"
  },
  {
    "lat": "-20.267575",
    "lng": "-70.098906",
    "city": "Alto Hospicio",
    "country": "Chile",
    "imid": 54684,
    "creator": "Sherlok76"
  }
]
