[
  {
    "lat": "48.294029",
    "lng": "14.292398",
    "city": "Linz",
    "country": "Austria",
    "imid": 54206,
    "creator": "geozukunft"
  },
  {
    "lat": "51.217182",
    "lng": "4.421183",
    "city": "Antwerp",
    "country": "Belgium",
    "imid": 54234,
    "creator": "fvanstra"
  },
  {
    "lat": "50.839575",
    "lng": "4.397176",
    "city": "Brussels",
    "country": "Belgium",
    "imid": 54209,
    "creator": "Phaeleh14"
  },
  {
    "lat": "30.063306",
    "lng": "31.21987",
    "city": "Cairo",
    "country": "Egypt",
    "imid": 54217,
    "creator": "Trixity"
  },
  {
    "lat": "60.569318",
    "lng": "27.201076",
    "city": "Hamina",
    "country": "Finland",
    "imid": 54150,
    "creator": "Juho94"
  },
  {
    "lat": "60.51581",
    "lng": "26.935377",
    "city": "Kotka",
    "country": "Finland",
    "imid": 54078,
    "creator": "Juho94"
  },
  {
    "lat": "65.013335",
    "lng": "25.464731",
    "city": "Oulu",
    "country": "Finland",
    "imid": 54193,
    "creator": "ziudt"
  },
  {
    "lat": "63.096853",
    "lng": "21.616998",
    "city": "Vasa",
    "country": "Finland",
    "imid": 54147,
    "creator": "KarhulS"
  },
  {
    "lat": "48.650957",
    "lng": "-2.021719",
    "city": "Saint-Malo",
    "country": "France",
    "imid": 54215,
    "creator": "Dtargarye"
  },
  {
    "lat": "48.366465",
    "lng": "10.894503",
    "city": "Augsburg",
    "country": "Germany",
    "imid": 54158,
    "creator": "Pr0grammansage"
  },
  {
    "lat": "47.862161",
    "lng": "12.004311",
    "city": "Bad Aibling",
    "country": "Germany",
    "imid": 54134,
    "creator": "TianDerHungrige"
  },
  {
    "lat": "52.516489",
    "lng": "13.380383",
    "city": "Berlin",
    "country": "Germany",
    "imid": 54196,
    "creator": "Claudija"
  },
  {
    "lat": "53.075523",
    "lng": "8.80823",
    "city": "Bremen",
    "country": "Germany",
    "imid": 54227,
    "creator": "Vainar"
  },
  {
    "lat": "48.829077",
    "lng": "12.964637",
    "city": "Deggendorf",
    "country": "Germany",
    "imid": 54230,
    "creator": "EternalFlame94"
  },
  {
    "lat": "51.050004",
    "lng": "13.737016",
    "city": "Dresden",
    "country": "Germany",
    "imid": 54011,
    "creator": "damdina"
  },
  {
    "lat": "51.52923",
    "lng": "11.548133",
    "city": "Eisleben",
    "country": "Germany",
    "imid": 54243,
    "creator": "slight7"
  },
  {
    "lat": "49.476206",
    "lng": "10.975983",
    "city": "Fürth",
    "country": "Germany",
    "imid": 54116,
    "creator": "growanian"
  },
  {
    "lat": "53.788187",
    "lng": "9.427871",
    "city": "Glückstadt",
    "country": "Germany",
    "imid": 54221,
    "creator": "DonSyco"
  },
  {
    "lat": "48.111135",
    "lng": "11.731159",
    "city": "Haar",
    "country": "Germany",
    "imid": 54216,
    "creator": "wazoo"
  },
  {
    "lat": "51.483671",
    "lng": "11.97519",
    "city": "Halle (Saale)",
    "country": "Germany",
    "imid": 54107,
    "creator": "janc70"
  },
  {
    "lat": "53.551495",
    "lng": "9.992347",
    "city": "Hamburg",
    "country": "Germany",
    "imid": 54192,
    "creator": "damdina"
  },
  {
    "lat": "50.924988",
    "lng": "11.587354",
    "city": "Jena",
    "country": "Germany",
    "imid": 54149,
    "creator": "BitKloepplerin"
  },
  {
    "lat": "49.001729",
    "lng": "8.462592",
    "city": "Karlsruhe",
    "country": "Germany",
    "imid": 54204,
    "creator": "AxForest"
  },
  {
    "lat": "48.049161",
    "lng": "10.878928",
    "city": "Landsberg am Lech",
    "country": "Germany",
    "imid": 54219,
    "creator": "BastyG"
  },
  {
    "lat": "51.343125",
    "lng": "12.380236",
    "city": "Leipzig",
    "country": "Germany",
    "imid": 54191,
    "creator": "damdina"
  },
  {
    "lat": "49.485371",
    "lng": "8.463827",
    "city": "Mannheim",
    "country": "Germany",
    "imid": 54113,
    "creator": "chousan07"
  },
  {
    "lat": "48.779102",
    "lng": "12.866475",
    "city": "Plattling",
    "country": "Germany",
    "imid": 54197,
    "creator": "EternalFlame94"
  },
  {
    "lat": "47.85047",
    "lng": "12.119574",
    "city": "Rosenheim",
    "country": "Germany",
    "imid": 54086,
    "creator": "TianDerHungrige"
  },
  {
    "lat": "50.995291",
    "lng": "9.729127",
    "city": "Rotenburg an der Fulda",
    "country": "Germany",
    "imid": 54251,
    "creator": "MaveX5"
  },
  {
    "lat": "37.974911",
    "lng": "23.735771",
    "city": "Athens",
    "country": "Greece",
    "imid": 54118,
    "creator": "DMiliarakis"
  },
  {
    "lat": "35.337529",
    "lng": "25.130693",
    "city": "Heraklion",
    "country": "Greece",
    "imid": 54161,
    "creator": "Statbir"
  },
  {
    "lat": "39.640184",
    "lng": "22.419096",
    "city": "Larisa",
    "country": "Greece",
    "imid": 54236,
    "creator": "Yoricas"
  },
  {
    "lat": "38.251899",
    "lng": "21.739634",
    "city": "Patras",
    "country": "Greece",
    "imid": 54136,
    "creator": "AeonLeon"
  },
  {
    "lat": "40.626337",
    "lng": "22.948425",
    "city": "Thessaloniki",
    "country": "Greece",
    "imid": 54153,
    "creator": "DMiliarakis"
  },
  {
    "lat": "47.498832",
    "lng": "19.036286",
    "city": "Budapest",
    "country": "Hungary",
    "imid": 54244,
    "creator": "Cselka"
  },
  {
    "lat": "64.107602",
    "lng": "-21.904514",
    "city": "Kopavogur",
    "country": "Iceland",
    "imid": 54194,
    "creator": "KarhuIS"
  },
  {
    "lat": "51.690497",
    "lng": "5.29434",
    "city": "s-Hertogenbosch",
    "country": "Netherlands",
    "imid": 54203,
    "creator": "DhrMekmek"
  },
  {
    "lat": "52.994954",
    "lng": "6.563793",
    "city": "Assen",
    "country": "Netherlands",
    "imid": 54081,
    "creator": "Ducilia"
  },
  {
    "lat": "52.257064",
    "lng": "6.160588",
    "city": "Deventer",
    "country": "Netherlands",
    "imid": 54246,
    "creator": "DhrMekmek"
  },
  {
    "lat": "51.561116",
    "lng": "3.499326",
    "city": "Domburg",
    "country": "Netherlands",
    "imid": 54169,
    "creator": "Captainmichiel"
  },
  {
    "lat": "52.226575",
    "lng": "5.181367",
    "city": "Hilversum",
    "country": "Netherlands",
    "imid": 54208,
    "creator": "JeffNL"
  },
  {
    "lat": "53.159172",
    "lng": "6.754585",
    "city": "Hoogezand",
    "country": "Netherlands",
    "imid": 54205,
    "creator": "Henno86"
  },
  {
    "lat": "51.500105",
    "lng": "3.61614",
    "city": "Middelburg",
    "country": "Netherlands",
    "imid": 54178,
    "creator": "SagaSanTSD"
  },
  {
    "lat": "52.091724",
    "lng": "5.116839",
    "city": "Utrecht",
    "country": "Netherlands",
    "imid": 54122,
    "creator": "DhrMekmek"
  },
  {
    "lat": "50.258465",
    "lng": "19.018318",
    "city": "Katovice",
    "country": "Poland",
    "imid": 54257,
    "creator": "pandahe1en"
  },
  {
    "lat": "48.146414",
    "lng": "17.106836",
    "city": "Bratislava",
    "country": "Slovakia",
    "imid": 54200,
    "creator": "EternalFlame94"
  },
  {
    "lat": "41.344046",
    "lng": "2.038229",
    "city": "Sant Boi de Llobregat",
    "country": "Spain",
    "imid": 54255,
    "creator": "sonicyo76"
  },
  {
    "lat": "57.707024",
    "lng": "11.967525",
    "city": "Göteborg",
    "country": "Sweden",
    "imid": 54112,
    "creator": "Sajjen"
  },
  {
    "lat": "55.707156",
    "lng": "13.1873",
    "city": "Lund",
    "country": "Sweden",
    "imid": 54080,
    "creator": "ckk76"
  },
  {
    "lat": "57.655781",
    "lng": "12.016563",
    "city": "Mölndal",
    "country": "Sweden",
    "imid": 54111,
    "creator": "Sajjen"
  },
  {
    "lat": "47.555917",
    "lng": "7.591526",
    "city": "Basel",
    "country": "Switzerland",
    "imid": 54198,
    "creator": "Claudija"
  },
  {
    "lat": "46.462713",
    "lng": "6.842373",
    "city": "Vevey",
    "country": "Switzerland",
    "imid": 54231,
    "creator": "Shogun79"
  },
  {
    "lat": "47.37713",
    "lng": "8.539107",
    "city": "Zürich",
    "country": "Switzerland",
    "imid": 54232,
    "creator": "Shogun79"
  },
  {
    "lat": "52.916441",
    "lng": "-1.463059",
    "city": "Derby",
    "country": "United Kingdom",
    "imid": 54124,
    "creator": "Caraphaelius"
  },
  {
    "lat": "53.795908",
    "lng": "-1.547121",
    "city": "Leeds",
    "country": "United Kingdom",
    "imid": 54207,
    "creator": "RoseyMacdoo"
  },
  {
    "lat": "50.448772",
    "lng": "30.512848",
    "city": "Kyiv",
    "country": "Ukraine",
    "imid": 54253,
    "creator": "IskanderLocator"
  },
  {
    "lat": "49.183854",
    "lng": "-122.848645",
    "city": "Surrey",
    "country": "Canada",
    "imid": 54229,
    "creator": "nifffer"
  },
  {
    "lat": "0.870556",
    "lng": "-79.847929",
    "city": "Atacames",
    "country": "Ecuador",
    "imid": 54077,
    "creator": "nikp3h"
  },
  {
    "lat": "-0.273806",
    "lng": "-79.44936",
    "city": "El Carmen",
    "country": "Ecuador",
    "imid": 54164,
    "creator": "nikp3h"
  },
  {
    "lat": "0.956909",
    "lng": "-79.65131",
    "city": "Esmeraldas",
    "country": "Ecuador",
    "imid": 54117,
    "creator": "nikp3h"
  },
  {
    "lat": "-0.957761",
    "lng": "-80.714912",
    "city": "Manta",
    "country": "Ecuador",
    "imid": 54166,
    "creator": "AleksEspi"
  },
  {
    "lat": "46.819092",
    "lng": "-100.778694",
    "city": "Bismarck (North Dakota)",
    "country": "USA",
    "imid": 54222,
    "creator": "localgeek"
  },
  {
    "lat": "26.881696",
    "lng": "-80.106984",
    "city": "Palm Beach Gardens",
    "country": "USA",
    "imid": 54133,
    "creator": "porkobyte"
  },
  {
    "lat": "37.791271",
    "lng": "-122.38933",
    "city": "San Francisco",
    "country": "USA",
    "imid": 54152,
    "creator": "Claudija"
  },
  {
    "lat": "29.883279",
    "lng": "-97.940494",
    "city": "San Marcos (Texas)",
    "country": "USA",
    "imid": 54275,
    "creator": "krockwastaken"
  },
  {
    "lat": "-27.46551",
    "lng": "153.019108",
    "city": "Brisbane",
    "country": "Australia",
    "imid": 54249,
    "creator": "Lluminaire"
  },
  {
    "lat": "34.693121",
    "lng": "135.501174",
    "city": "Osaka",
    "country": "Japan",
    "imid": 54267,
    "creator": "tarmn3"
  },
  {
    "lat": "43.058986",
    "lng": "141.340645",
    "city": "Sapporo",
    "country": "Japan",
    "imid": 54258,
    "creator": "yukiatom"
  },
  {
    "lat": "35.894062",
    "lng": "139.633969",
    "city": "Saitama",
    "country": "Japan",
    "imid": 54266,
    "creator": "chousan07"
  },
  {
    "lat": "46.12622",
    "lng": "3.415488",
    "city": "Vichy",
    "country": "France",
    "imid": 54285,
    "creator": "Leynou"
  },
  {
    "lat": "0.00764",
    "lng": "-79.398505",
    "city": "La Concordia",
    "country": "Ecuador",
    "imid": 54288,
    "creator": "nikp3h"
  },
  {
    "lat": "42.938766",
    "lng": "-78.888056",
    "city": "Buffalo (New York)",
    "country": "USA",
    "imid": 54290,
    "creator": "DisasterMaker89"
  },
  {
    "lat": "41.853578",
    "lng": "-87.652462",
    "city": "Chicago (Illinois)",
    "country": "USA",
    "imid": 54291,
    "creator": "DisasterMaker89"
  },
  {
    "lat": "45.254921",
    "lng": "19.843664",
    "city": "Novi Sad",
    "country": "Serbia",
    "imid": 54293,
    "creator": "brunopuric"
  },
  {
    "lat": "-23.4256",
    "lng": "-51.936734",
    "city": "Maringá",
    "country": "Brazil",
    "imid": 54283,
    "creator": "GiJoeRise"
  },
  {
    "lat": "47.522631",
    "lng": "8.537618",
    "city": "Bülach",
    "country": "Switzerland",
    "imid": 54294,
    "creator": "Shogun79"
  },
  {
    "lat": "30.703443",
    "lng": "76.781464",
    "city": "Chandigarh",
    "country": "India",
    "imid": 54295,
    "creator": "CommandoRana"
  },
  {
    "lat": "28.470661",
    "lng": "77.063088",
    "city": "Gurugram",
    "country": "India",
    "imid": 54296,
    "creator": "bhands"
  },
  {
    "lat": "-0.23927",
    "lng": "-79.17017",
    "city": "Santo Domingo",
    "country": "Ecuador",
    "imid": 54298,
    "creator": "VMRios"
  },
  {
    "lat": "33.459509",
    "lng": "-112.072391",
    "city": "Phoenix (Arizona)",
    "country": "USA",
    "imid": 54301,
    "creator": "MonkeyPelt"
  },
  {
    "lat": "50.63754",
    "lng": "3.07162",
    "city": "Lille",
    "country": "France",
    "imid": 54297,
    "creator": "MarcoSunbass"
  },
  {
    "lat": "50.06767",
    "lng": "14.415601",
    "city": "Prague",
    "country": "Czech Republic",
    "imid": 54310,
    "creator": "toothrot"
  },
  {
    "lat": "52.507028",
    "lng": "5.470724",
    "city": "Lelystad",
    "country": "Netherlands",
    "imid": 54309,
    "creator": "ioHpeiH"
  },
  {
    "lat": "43.259068",
    "lng": "-2.922657",
    "city": "Bilbao",
    "country": "Spain",
    "imid": 54312,
    "creator": "ntzz"
  },
  {
    "lat": "49.868536",
    "lng": "8.650301",
    "city": "Darmstadt",
    "country": "Germany",
    "imid": 54314,
    "creator": "YaYaMuuu"
  },
  {
    "lat": "42.340967",
    "lng": "-3.716752",
    "city": "Burgos",
    "country": "Spain",
    "imid": 54313,
    "creator": "ntzz"
  },
  {
    "lat": "53.431731",
    "lng": "14.566931",
    "city": "Szczecin",
    "country": "Poland",
    "imid": 54315,
    "creator": "GreenBay"
  },
  {
    "lat": "55.594231",
    "lng": "13.000364",
    "city": "Malmö",
    "country": "Sweden",
    "imid": 54316,
    "creator": "ckk76"
  },
  {
    "lat": "41.388745",
    "lng": "2.172648",
    "city": "Barcelona",
    "country": "Spain",
    "imid": 54318,
    "creator": "abstractpainter"
  },
  {
    "lat": "54.522956",
    "lng": "18.543882",
    "city": "Gdynia",
    "country": "Poland",
    "imid": 54317,
    "creator": "Therin87"
  },
  {
    "lat": "60.170694",
    "lng": "24.941522",
    "city": "Helsinki",
    "country": "Finland",
    "imid": 54321,
    "creator": "Gentianella"
  },
  {
    "lat": "60.870776",
    "lng": "26.714445",
    "city": "Kouvola",
    "country": "Finland",
    "imid": 54324,
    "creator": "Juho94"
  },
  {
    "lat": "41.560972",
    "lng": "2.007625",
    "city": "Terrassa",
    "country": "Spain",
    "imid": 54325,
    "creator": "abstractpainter"
  },
  {
    "lat": "52.199851",
    "lng": "0.127864",
    "city": "Cambridge",
    "country": "United Kingdom",
    "imid": 54326,
    "creator": "thundercracker1"
  },
  {
    "lat": "35.54397",
    "lng": "134.2374",
    "city": "Tottori",
    "country": "Japan",
    "imid": 54328,
    "creator": "katops"
  },
  {
    "lat": "48.115212",
    "lng": "-1.677485",
    "city": "Rennes",
    "country": "France",
    "imid": 54335,
    "creator": "Dtargarye"
  },
  {
    "lat": "-12.078701",
    "lng": "-77.049949",
    "city": "Lima",
    "country": "Peru",
    "imid": 54344,
    "creator": "Amularia"
  },
  {
    "lat": "54.074436",
    "lng": "9.98174",
    "city": "Neumünster",
    "country": "Germany",
    "imid": 54343,
    "creator": "BaronVonLoewi"
  },
  {
    "lat": "61.20254",
    "lng": "26.034381",
    "city": "Heinola",
    "country": "Finland",
    "imid": 54338,
    "creator": "Eeligamer"
  },
  {
    "lat": "55.860454",
    "lng": "-4.249022",
    "city": "Glasgow",
    "country": "United Kingdom",
    "imid": 54349,
    "creator": "1969reeperman"
  },
  {
    "lat": "48.881118",
    "lng": "12.565601",
    "city": "Straubing",
    "country": "Germany",
    "imid": 54350,
    "creator": "EternalFlame94"
  },
  {
    "lat": "48.950333",
    "lng": "13.199321",
    "city": "Rinchnach",
    "country": "Germany",
    "imid": 54351,
    "creator": "EternalFlame94"
  },
  {
    "lat": "48.571397",
    "lng": "13.456288",
    "city": "Passau",
    "country": "Germany",
    "imid": 54352,
    "creator": "EternalFlame94"
  },
  {
    "lat": "49.417323",
    "lng": "8.675789",
    "city": "Heidelberg",
    "country": "Germany",
    "imid": 54363,
    "creator": "Nasgorian"
  },
  {
    "lat": "48.765214",
    "lng": "13.019515",
    "city": "Niederalteich",
    "country": "Germany",
    "imid": 54368,
    "creator": "19mel89"
  },
  {
    "lat": "45.475579",
    "lng": "9.172583",
    "city": "Milan",
    "country": "Italy",
    "imid": 54364,
    "creator": "rayofshadow23"
  },
  {
    "lat": "48.857335",
    "lng": "2.351661",
    "city": "Paris",
    "country": "France",
    "imid": 54367,
    "creator": "Khatre"
  },
  {
    "lat": "48.823868",
    "lng": "2.353475",
    "city": "Paris district 13",
    "country": "France",
    "imid": 54369,
    "creator": "NorajBarthabass"
  }
]
